[{"building_name":"SRO Building","address":"109 West 129th Street","address_detail":"Basement,","city":"New York","state":"NY","meeting_titles":"A CHANCE TO LIVE AGAIN - A Chance To Live Again","meetingInfo":[{"day":"Wednesdays","time":"6:00,7:00","meetingTypeAcronyms":"BB","meetingType":" Big Book meeting","specialInterest":null},{"day":"Mondays","time":"7:00,8:00","meetingTypeAcronyms":"B","meetingType":" Beginners meeting","specialInterest":null}],"coordinate":{"lat":"40.8105033439451","lng":"-73.9438349756133"}},{"building_name":"Union Baptist Church","address":"240 West 145th Street","address_detail":"","city":"New York","state":"NY","meeting_titles":"AA IT WORKS  II - AA It Works II","meetingInfo":[{"day":"Wednesdays","time":"10:00,11:00","meetingTypeAcronyms":"B","meetingType":" Beginners meeting","specialInterest":null},{"day":"Thursdays","time":"10:00,11:00","meetingTypeAcronyms":"BB","meetingType":" Big Book meeting","specialInterest":null},{"day":"Fridays","time":"10:00,11:00","meetingTypeAcronyms":"S","meetingType":" Step meeting","specialInterest":null},{"day":"Tuesdays","time":"10:00,11:00","meetingTypeAcronyms":"OD","meetingType":" Open Discussion meeting","specialInterest":null}],"coordinate":{"lat":"40.8220449603096","lng":"-73.9402738669626"}},{"building_name":"Our Lady of Lourdes Church","address":"469 West 142nd Street","address_detail":"Basement,","city":"New York","state":"NY","meeting_titles":"ATTITUDE ADJUSTMENT - Attitude Adjustment","meetingInfo":[{"day":"Saturdays","time":"7:30,8:30","meetingTypeAcronyms":"OD","meetingType":" Open Discussion meeting","specialInterest":null}],"coordinate":{"lat":"40.8232200234845","lng":"-73.9485449135295"}},{"building_name":"St. Phillip Church","address":"204 West 134th Street","address_detail":"1st Floor,","city":"New York","state":"NY","meeting_titles":"CONVENT","meetingInfo":[{"day":"Saturdays","time":"11:30,1:00","meetingTypeAcronyms":"OD","meetingType":" Open Discussion meeting","specialInterest":null}],"coordinate":{"lat":"40.8146053686072","lng":"-73.9443570754889"}},{"building_name":"Spiritual Renewal Church","address":"2044 Adam Clayton Powell Blvd.","address_detail":"","city":"New York","state":"NY","meeting_titles":"FELLOWSHIP AT NOON - Fellowship At Noon","meetingInfo":[{"day":"Mondays","time":"12:15,1:15","meetingTypeAcronyms":"B","meetingType":" Beginners meeting","specialInterest":null},{"day":"Wednesdays","time":"12:15,1:15","meetingTypeAcronyms":"S","meetingType":" Step meeting","specialInterest":null},{"day":"Fridays","time":"12:15,1:15","meetingTypeAcronyms":"OD","meetingType":" Open Discussion meeting","specialInterest":null}],"coordinate":{"lat":"40.8072665297278","lng":"-73.9499061022154"}},{"building_name":"","address":"469 West 142nd Street","address_detail":"1st Floor,","city":"New York","state":"NY","meeting_titles":"GRUPO TRASMITELO","meetingInfo":[{"day":"Thursdays","time":"8:00,9:00","meetingTypeAcronyms":"B","meetingType":" Beginners meeting","specialInterest":null}],"coordinate":{"lat":"40.8232200234845","lng":"-73.9485449135295"}},{"building_name":"St. Mary's Episcopal","address":"521 W 126th St","address_detail":"","city":"New York","state":"NY","meeting_titles":"HARLEM HUMANISTS","meetingInfo":[{"day":"Mondays","time":"12:00,1:00","meetingTypeAcronyms":"O","meetingType":" Open meeting","specialInterest":"Agnostic"}],"coordinate":{"lat":"40.8144929933342","lng":"-73.9558896362264"}},{"building_name":"SRO Building Community Room","address":"109 West 129th Street","address_detail":"Basement,","city":"New York","state":"NY","meeting_titles":"K.I.S.S. - Keep It Simple (Kiss)","meetingInfo":[{"day":"Sundays","time":"5:30,6:30","meetingTypeAcronyms":"S","meetingType":" Step meeting","specialInterest":null},{"day":"Sundays","time":"7:00,8:00","meetingTypeAcronyms":"B","meetingType":" Beginners meeting","specialInterest":null}],"coordinate":{"lat":"40.8105033439451","lng":"-73.9438349756133"}},{"building_name":"Our Lady of Lourdes","address":"469 West 142nd Street","address_detail":"Basement,","city":"New York","state":"NY","meeting_titles":"LEARNING TO LIVE SOBER - Learning To Live Sober","meetingInfo":[{"day":"Thursdays","time":"6:00,7:00","meetingTypeAcronyms":"BB","meetingType":" Big Book meeting","specialInterest":null}],"coordinate":{"lat":"40.8232200234845","lng":"-73.9485449135295"}},{"building_name":"","address":"2044 Seventh Avenue","address_detail":"NY 10027","city":"New York","state":"NY","meeting_titles":"LIVING CLEAN AND SOBER ON 121st STREET - Living Clean And Sober On 121st Street","meetingInfo":[{"day":"Sundays","time":"6:00,7:30","meetingTypeAcronyms":"B","meetingType":" Beginners meeting","specialInterest":null}],"coordinate":{"lat":"40.8071759186691","lng":"-73.9497519327616"}},{"building_name":"S.A.G.E.","address":"127 West 127th Street","address_detail":"","city":"New York","state":"NY","meeting_titles":"MEDITATION COMES TO HARLEM - Meditation Comes To Harlem","meetingInfo":[{"day":"Mondays","time":"4:30,5:30","meetingTypeAcronyms":"C","meetingType":" Closed Discussion meeting","specialInterest":null}],"coordinate":{"lat":"40.8094766772235","lng":"-73.9452613355488"}},{"building_name":"Grace Congregational Baptist Church","address":"310 West 139th Street","address_detail":"Basement,","city":"New York","state":"NY","meeting_titles":"MID-HARLEM - Mid-Harlem","meetingInfo":[{"day":"Mondays","time":"7:00,8:00","meetingTypeAcronyms":"S","meetingType":" Step meeting","specialInterest":null},{"day":"Fridays","time":"7:00,8:00","meetingTypeAcronyms":"B","meetingType":" Beginners meeting","specialInterest":null},{"day":"Fridays","time":"8:00,9:00","meetingTypeAcronyms":"O","meetingType":" Open meeting","specialInterest":null}],"coordinate":{"lat":"40.8190256453939","lng":"-73.9448681362397"}},{"building_name":"St. James Church","address":"409 West 141st Street","address_detail":"Basement,","city":"New York","state":"NY","meeting_titles":"MONDAY NIGHT CHALLENGE - Monday Night Challenge","meetingInfo":[{"day":"Mondays","time":"7:00,8:00","meetingTypeAcronyms":"B","meetingType":" Beginners meeting","specialInterest":null}],"coordinate":{"lat":"40.8215326572652","lng":"-73.9464830279892"}},{"building_name":"Riverside Church","address":"91 Claremont Avenue","address_detail":"4th Floor, Room 414,","city":"New York","state":"NY","meeting_titles":"PRIMARY PURPOSE - Primary Purpose","meetingInfo":[{"day":"Sundays","time":"3:00,4:00","meetingTypeAcronyms":"OD","meetingType":" Open Discussion meeting","specialInterest":null}],"coordinate":{"lat":"40.812","lng":"-73.9625"}},{"building_name":"Upper Manhattan Mental Health Center","address":"1727 Amsterdam Avenue","address_detail":"1st Floor in the rear.,","city":"New York","state":"NY","meeting_titles":"PROMISES TWO FOR ONE - Promises Two For One","meetingInfo":[{"day":"Sundays","time":"9:30,10:30","meetingTypeAcronyms":"B","meetingType":" Beginners meeting","specialInterest":null},{"day":"Sundays","time":"11:00,12:00","meetingTypeAcronyms":"C","meetingType":" Closed Discussion meeting","specialInterest":null}],"coordinate":{"lat":"40.8255371320577","lng":"-73.9471630832303"}},{"building_name":"Our Lady of Lourdes Church","address":"469 West 142nd Street","address_detail":"Basement,","city":"New York","state":"NY","meeting_titles":"REALITY CHECK - Reality Check","meetingInfo":[{"day":"Saturdays","time":"5:00,6:00","meetingTypeAcronyms":"OD","meetingType":" Open Discussion meeting","specialInterest":"Men"}],"coordinate":{"lat":"40.8232200234845","lng":"-73.9485449135295"}},{"building_name":"Riverside Church","address":"91 Claremont Avenue","address_detail":"@ The Cloisters Club Room,","city":"New York","state":"NY","meeting_titles":"RIVERSIDE - Riverside","meetingInfo":[{"day":"Mondays","time":"7:00,8:00","meetingTypeAcronyms":"C","meetingType":" Closed Discussion meeting","specialInterest":null}],"coordinate":{"lat":"40.812","lng":"-73.9625"}},{"building_name":"St. Aloysius School","address":"219 West 132nd Street","address_detail":"Cafeteria,","city":"New York","state":"NY","meeting_titles":"RIVERTON - Riverton","meetingInfo":[{"day":"Saturdays","time":"3:00,4:00","meetingTypeAcronyms":"B","meetingType":" Beginners meeting","specialInterest":null},{"day":"Saturdays","time":"6:00,7:00","meetingTypeAcronyms":"O","meetingType":" Open meeting","specialInterest":null},{"day":"Tuesdays","time":"8:00,9:00","meetingTypeAcronyms":null,"meetingType":null,"specialInterest":null}],"coordinate":{"lat":"40.8136938017217","lng":"-73.9455988432903"}},{"building_name":"Salem United Methodist Church Community Center","address":"211 West 129th Street","address_detail":"Downstairs in the Gym,","city":"New York","state":"NY","meeting_titles":"SALEM - Salem","meetingInfo":[{"day":"Wednesdays","time":"7:30,8:30","meetingTypeAcronyms":"C","meetingType":" Closed Discussion meeting","specialInterest":null}],"coordinate":{"lat":"40.811646918986","lng":"-73.9465692736586"}},{"building_name":"Convent Baptist Church Education Building","address":"425 West 144th Street","address_detail":"1st Floor,","city":"New York","state":"NY","meeting_titles":"SOBER ADULT MEN - Sober Adult Men","meetingInfo":[{"day":"Wednesdays","time":"7:00,8:00","meetingTypeAcronyms":"C","meetingType":" Closed Discussion meeting","specialInterest":"Men"}],"coordinate":{"lat":"40.8238859925299","lng":"-73.9462723904462"}},{"building_name":"St. Phillip's Church","address":"204 West 134th Street","address_detail":"Basement,","city":"New York","state":"NY","meeting_titles":"ST. NICHOLAS - St. Nicholas","meetingInfo":[{"day":"Sundays","time":"4:00,5:00","meetingTypeAcronyms":"O","meetingType":" Open meeting","specialInterest":null},{"day":"Thursdays","time":"7:00,8:00","meetingTypeAcronyms":"B","meetingType":" Beginners meeting","specialInterest":null}],"coordinate":{"lat":"40.8146053686072","lng":"-73.9443570754889"}},{"building_name":"Harlem Hospital King Pavilion","address":"506 Lenox Avenue","address_detail":"Room #3101, 3rd Floor,","city":"New York","state":"NY","meeting_titles":"STEPS 3 and 11 - Steps Three-Eleven","meetingInfo":[{"day":"Sundays","time":"2:00,3:00","meetingTypeAcronyms":"B","meetingType":" Beginners meeting","specialInterest":null}],"coordinate":{"lat":"40.8143540280369","lng":"-73.9403080272408"}},{"building_name":"Council Center for Problems of Living","address":"1727 Amsterdam Avenue","address_detail":"1st floor in the rear,","city":"New York","state":"NY","meeting_titles":"SUGAR HILL","meetingInfo":[{"day":"Fridays","time":"5:30,6:30","meetingTypeAcronyms":"B","meetingType":" Beginners meeting","specialInterest":null}],"coordinate":{"lat":"40.8255","lng":"-73.9472"}},{"building_name":"","address":"1854 Amsterdam Avenue","address_detail":"Basment,","city":"New York","state":"NY","meeting_titles":"TUESDAY BIG BOOK STUDY - Tuesday Big Book Study","meetingInfo":[{"day":"Tuesdays","time":"6:00,7:00","meetingTypeAcronyms":"BB","meetingType":" Big Book meeting","specialInterest":null}],"coordinate":{"lat":"40.8302","lng":"-73.9442"}},{"building_name":"Our Lady of Lourdes Church","address":"469 West 142nd Street","address_detail":"Basement,","city":"New York","state":"NY","meeting_titles":"UPTOWN BIG BOOK WORKSHOP","meetingInfo":[{"day":"Saturdays","time":"9:30,11:00","meetingTypeAcronyms":"BB","meetingType":" Big Book meeting","specialInterest":"Big Book Workshop"}],"coordinate":{"lat":"40.8232200234845","lng":"-73.9485449135295"}},{"building_name":"Metropolitan AME Church","address":"58-66 West 135th Street","address_detail":"","city":"New York","state":"NY","meeting_titles":"YOU MAY CARE AFTER - You May Care After","meetingInfo":[{"day":"Tuesdays","time":"6:30,7:30","meetingTypeAcronyms":"S","meetingType":" Step meeting","specialInterest":null}],"coordinate":{"lat":"40.6639307188879","lng":"-73.9382749875207"}}]